{"type":"FeatureCollection","features":[{"geometry": {"type": "Point", "coordinates": [-71.11527515176212, 42.362302527172005]}, "type": "Feature", "id": 1, "properties": {"Status": "Complete", "PARK": "Riverside Press Park", "LOCATION": "River Street", "GlobalID": "{78F3E0BA-F022-4A2E-8941-DD5C7B2D362E}", "Size": "Full"}},{"geometry": {"type": "Point", "coordinates": [-71.112131928420922, 42.36337221288904]}, "type": "Feature", "id": 2, "properties": {"Status": "Complete", "PARK": "Hoyt Field", "LOCATION": "Montague Street", "GlobalID": "{139FC5E7-E8AE-41A2-8DFC-1EEE142E89C6}", "Size": "Full"}},{"geometry": {"type": "Point", "coordinates": [-71.115105235052269, 42.367304603759138]}, "type": "Feature", "id": 3, "properties": {"Status": "Complete", "PARK": "Corporal Burns Park", "LOCATION": "Flagg Street", "GlobalID": "{2EB52605-1AEA-42EF-A82E-264BDC11696C}", "Size": "Full"}},{"geometry": {"type": "Point", "coordinates": [-71.107889315378287, 42.369528142115627]}, "type": "Feature", "id": 4, "properties": {"Status": "Complete", "PARK": "Cooper Park", "LOCATION": "Hancock Street", "GlobalID": "{9C309DF9-FE1D-4F80-B296-6EE1D975B12B}", "Size": "Full"}},{"geometry": {"type": "Point", "coordinates": [-71.089610112288923, 42.372980981520008]}, "type": "Feature", "id": 5, "properties": {"Status": "Complete", "PARK": "Gannett/Warren Pals Park", "LOCATION": "Marion Street", "GlobalID": "{7FB8BD04-06D5-4A6A-9C49-3A44A0FC0FAE}", "Size": "Full"}},{"geometry": {"type": "Point", "coordinates": [-71.151300806475319, 42.38006735132673]}, "type": "Feature", "id": 6, "properties": {"Status": "Complete", "PARK": "Glacken Field", "LOCATION": "Huron Avenue", "GlobalID": "{18C0E245-EDC2-4869-9BB2-8CA9C62AEE1C}", "Size": "Full"}},{"geometry": {"type": "Point", "coordinates": [-71.082948287857803, 42.368406471276543]}, "type": "Feature", "id": 7, "properties": {"Status": "Complete", "PARK": "Hurley Park", "LOCATION": "Hurley Street", "GlobalID": "{EB1EDD1F-0528-4FB0-AE0A-BEE2159DF2D2}", "Size": "Full"}},{"geometry": {"type": "Point", "coordinates": [-71.101639523725311, 42.370987637658217]}, "type": "Feature", "id": 8, "properties": {"Status": "Complete", "PARK": "Paine Park", "LOCATION": "St. Mary Road", "GlobalID": "{76FC956A-9099-4DB2-B49C-E5629930DFED}", "Size": "Full"}},{"geometry": {"type": "Point", "coordinates": [-71.098105297332623, 42.364376650969021]}, "type": "Feature", "id": 9, "properties": {"Status": "Complete", "PARK": "Pine Street Park", "LOCATION": "Pine Street", "GlobalID": "{FB72BFD6-8079-4379-81AA-CC380B511D24}", "Size": "Full"}},{"geometry": {"type": "Point", "coordinates": [-71.130678292747319, 42.395675512543484]}, "type": "Feature", "id": 10, "properties": {"Status": "Complete", "PARK": "Reverend Williams Park", "LOCATION": "Cedar Street", "GlobalID": "{70E3AA43-02A9-4D44-9334-61E736B5DA28}", "Size": "Full"}},{"geometry": {"type": "Point", "coordinates": [-71.133456676457001, 42.388722893253515]}, "type": "Feature", "id": 11, "properties": {"Status": "Complete", "PARK": "Danehy Park", "LOCATION": "Garden Street", "GlobalID": "{E4A29CD0-A0F4-462C-BCA8-636561C4BF1D}", "Size": "Full"}},{"geometry": {"type": "Point", "coordinates": [-71.085548576439749, 42.369035000240586]}, "type": "Feature", "id": 12, "properties": {"Status": "Complete", "PARK": "Kennedy/Longfellow School", "LOCATION": "Charles Street", "GlobalID": "{0D786268-F4BF-4726-9060-BD3BD66E3BCE}", "Size": "Full"}},{"geometry": {"type": "Point", "coordinates": [-71.112139100106958, 42.366857436913136]}, "type": "Feature", "id": 13, "properties": {"Status": "Complete", "PARK": "King School", "LOCATION": "Putnam Avenue", "GlobalID": "{88828E3A-F805-4042-BBFC-9E42D632611D}", "Size": "Full"}},{"geometry": {"type": "Point", "coordinates": [-71.127296724098883, 42.39123231227957]}, "type": "Feature", "id": 14, "properties": {"Status": "Complete", "PARK": "Bergin Park", "LOCATION": "Rindge Avenue", "GlobalID": "{662A95BA-F6EF-44D9-9059-671CCEEDD28A}", "Size": "Full"}},{"geometry": {"type": "Point", "coordinates": [-71.100473269476552, 42.368390468997276]}, "type": "Feature", "id": 15, "properties": {"Status": "Complete", "PARK": "Sennott Park", "LOCATION": "Broadway", "GlobalID": "{233F6D74-7857-42BF-9E66-24FBBF3B8627}", "Size": "Full"}},{"geometry": {"type": "Point", "coordinates": [-71.110405873673542, 42.367706837815497]}, "type": "Feature", "id": 16, "properties": {"Status": "Complete", "PARK": "Franklin Street Park", "LOCATION": "Franklin Street", "GlobalID": "{9950EE43-403B-4D94-B4E4-21674F2427A3}", "Size": "Small"}},{"geometry": {"type": "Point", "coordinates": [-71.104300341487175, 42.373361355569855]}, "type": "Feature", "id": 17, "properties": {"Status": "Complete", "PARK": "Maple Avenue Park", "LOCATION": "Maple Avenue", "GlobalID": "{4861CAC5-09B3-4818-A3A9-9A4E3219983B}", "Size": "Small"}},{"geometry": {"type": "Point", "coordinates": [-71.116387340322717, 42.382986050528174]}, "type": "Feature", "id": 18, "properties": {"Status": "Complete", "PARK": "Agassiz/Alden Park", "LOCATION": "Oxford Street", "GlobalID": "{D673FB3D-A38A-4145-9DBD-97F33BCBA2BB}", "Size": "Full"}},{"geometry": {"type": "Point", "coordinates": [-71.091985548845187, 42.371419918028593]}, "type": "Feature", "id": 19, "properties": {"Status": "Complete", "PARK": "Donnelly Field", "LOCATION": "Willow Street", "GlobalID": "{325A77D0-1760-427E-A2C9-E73DA52E4A07}", "Size": "Full"}},{"geometry": {"type": "Point", "coordinates": [-71.107712249162589, 42.36115634370821]}, "type": "Feature", "id": 20, "properties": {"Status": "Complete", "PARK": "Dana Park", "LOCATION": "Magazine Street", "GlobalID": "{5BA357E4-1317-420A-A704-E8F7919CEE99}", "Size": "Full"}},{"geometry": {"type": "Point", "coordinates": [-71.084226533408255, 42.37254563997805]}, "type": "Feature", "id": 21, "properties": {"Status": "Complete", "PARK": "Gold Star Mothers Park", "LOCATION": "Gore Street", "GlobalID": "{68A25B65-7BE3-4E9F-A091-BE7F100ECAB1}", "Size": "Full"}},{"geometry": {"type": "Point", "coordinates": [-71.094955892578483, 42.366101267438054]}, "type": "Feature", "id": 22, "properties": {"Status": "Under construction", "PARK": "Harvard Street Park", "LOCATION": "Harvard Street", "GlobalID": "{5F419757-04FC-405F-8834-C34A95656419}", "Size": "Full"}},{"geometry": {"type": "Point", "coordinates": [-71.139333696522655, 42.385769770328608]}, "type": "Feature", "id": 23, "properties": {"Status": "Under construction", "PARK": "Father Callanan Playground", "LOCATION": "Concord Ave", "GlobalID": "{22209FA1-5805-4742-B2F7-F41379818E8B}", "Size": "Full"}}]}