{"type":"FeatureCollection","features":[{"geometry": {"type": "Point", "coordinates": [-71.122421748935068, 42.396752543562556]}, "type": "Feature", "id": 1, "properties": {"LINE": "RED", "STATION": "DAVIS", "GlobalID": "{CA30D90E-704C-4678-8250-511052C77203}"}},{"geometry": {"type": "Point", "coordinates": [-71.141580246614737, 42.39667534498777]}, "type": "Feature", "id": 2, "properties": {"LINE": "RED", "STATION": "ALEWIFE", "GlobalID": "{84680AAB-9D6C-470E-91F6-6DF5AC87B0DE}"}},{"geometry": {"type": "Point", "coordinates": [-71.119119899938951, 42.388091038725797]}, "type": "Feature", "id": 3, "properties": {"LINE": "RED", "STATION": "PORTER", "GlobalID": "{42FCB9EA-5B71-4F50-97A3-54AF7E1704FE}"}},{"geometry": {"type": "Point", "coordinates": [-71.119009127902629, 42.373479086081467]}, "type": "Feature", "id": 4, "properties": {"LINE": "RED", "STATION": "HARVARD", "GlobalID": "{AA5274B7-CAA7-483E-B578-1099BB155C8C}"}},{"geometry": {"type": "Point", "coordinates": [-71.077395944870048, 42.371036831257818]}, "type": "Feature", "id": 5, "properties": {"LINE": "GREEN", "STATION": "LECHMERE", "GlobalID": "{FCC43AAB-1F39-406D-BA34-85DBF8FA7893}"}},{"geometry": {"type": "Point", "coordinates": [-71.067841889578588, 42.366809774353108]}, "type": "Feature", "id": 6, "properties": {"LINE": "GREEN", "STATION": "SCIENCE PARK", "GlobalID": "{DA0CD034-C9F6-4DC0-BCAA-2490A100A8AF}"}},{"geometry": {"type": "Point", "coordinates": [-71.103562738170837, 42.365389048825961]}, "type": "Feature", "id": 7, "properties": {"LINE": "RED", "STATION": "CENTRAL", "GlobalID": "{87B9B07D-CBEE-459A-99FE-98A72AE4E060}"}},{"geometry": {"type": "Point", "coordinates": [-71.086147947656514, 42.36244408612999]}, "type": "Feature", "id": 8, "properties": {"LINE": "RED", "STATION": "KENDALL/MIT", "GlobalID": "{ED26B895-DE50-444B-A9D8-19DAC7B4273C}"}},{"geometry": {"type": "Point", "coordinates": [-71.070864417584986, 42.361186110689715]}, "type": "Feature", "id": 9, "properties": {"LINE": "RED", "STATION": "CHARLES/MGH", "GlobalID": "{E9C76E16-F26A-48F6-B8B5-9415EA52201F}"}}]}