{"type":"FeatureCollection","features":[{"geometry": {"type": "Point", "coordinates": [-71.120081485003794, 42.389992862384105]}, "type": "Feature", "id": 1, "properties": {"PONAME": "Porter Square", "MAPID": "101-5", "GlobalID": "{64EFCB14-A4A1-444A-84FD-161E44A8514F}", "ADDRESS": "1953 Massachusetts Ave"}},{"geometry": {"type": "Point", "coordinates": [-71.099360593925837, 42.373725211302457]}, "type": "Feature", "id": 2, "properties": {"PONAME": "Inman Square", "MAPID": "340-9", "GlobalID": "{58823078-3A8A-466A-8C46-D1E4F0B2F0B4}", "ADDRESS": "1311 Cambridge St"}},{"geometry": {"type": "Point", "coordinates": [-71.080943424173142, 42.371337993250656]}, "type": "Feature", "id": 3, "properties": {"PONAME": "East Cambridge", "MAPID": "422-14", "GlobalID": "{8B4D4E67-F100-4145-AF9C-DCB58C0B843C}", "ADDRESS": "303 Cambridge St"}},{"geometry": {"type": "Point", "coordinates": [-71.106043957651082, 42.366331521475509]}, "type": "Feature", "id": 4, "properties": {"PONAME": "Central Square", "MAPID": "575-4", "GlobalID": "{8418736E-1B24-4AEF-81C1-250DE8834B02}", "ADDRESS": "770 Massachusetts Ave"}},{"geometry": {"type": "Point", "coordinates": [-71.084732485595438, 42.362067928710573]}, "type": "Feature", "id": 5, "properties": {"PONAME": "Kendall Square", "MAPID": "677-1", "GlobalID": "{7600D097-ABB9-4924-B155-71B165649172}", "ADDRESS": "250 Main St"}},{"geometry": {"type": "Point", "coordinates": [-71.094960628635278, 42.358979797944428]}, "type": "Feature", "id": 6, "properties": {"PONAME": "MIT Station", "MAPID": "708-5", "GlobalID": "{F93F806D-7184-4C00-9EEA-93A977697DB9}", "ADDRESS": "84 Massachusetts Ave"}},{"geometry": {"type": "Point", "coordinates": [-71.122819410684755, 42.373572784889028]}, "type": "Feature", "id": 7, "properties": {"PONAME": "Harvard Square", "MAPID": "355-7", "GlobalID": "{5AC94335-EF31-42AA-BB3D-192BD08E99F6}", "ADDRESS": "125 Mt Auburn St"}}]}