{"type":"FeatureCollection","features":[{"geometry": {"type": "Point", "coordinates": [-71.096778438272793, 42.367449895754689]}, "type": "Feature", "id": 1, "properties": {"MapID": 11.0, "PARK": "Squirrel Brand Community Garden", "LOCATION": "Broadway at Boardman St", "GlobalID": "{966C2411-2C13-4F17-9A86-BE48096E5034}"}},{"geometry": {"type": "Point", "coordinates": [-71.12845369187211, 42.386810828678854]}, "type": "Feature", "id": 2, "properties": {"MapID": 5.0, "PARK": "Corcoran Park Community Garden", "LOCATION": "Walden St", "GlobalID": "{23CC85A9-553D-4250-B265-D67B2A742A20}"}},{"geometry": {"type": "Point", "coordinates": [-71.111007081768463, 42.368508139873256]}, "type": "Feature", "id": 3, "properties": {"MapID": 8.0, "PARK": "Green Street Neighborhood Garden", "LOCATION": "Green St at Bay St", "GlobalID": "{22FA13F5-6554-4123-ACF7-CEC4532D13AE}"}},{"geometry": {"type": "Point", "coordinates": [-71.127302451016334, 42.389935198816808]}, "type": "Feature", "id": 4, "properties": {"MapID": 4.0, "PARK": "McMath Park Community Garden", "LOCATION": "Pemberton St", "GlobalID": "{F4C6E748-F910-4E07-9977-BD0ECAEC11B7}"}},{"geometry": {"type": "Point", "coordinates": [-71.094003900779825, 42.365937833986102]}, "type": "Feature", "id": 5, "properties": {"MapID": 12.0, "PARK": "Moore Street Community Garden", "LOCATION": "Moore St", "GlobalID": "{1A75F74C-86B0-4008-A601-B65B5833559F}"}},{"geometry": {"type": "Point", "coordinates": [-71.10431013819165, 42.361909081991008]}, "type": "Feature", "id": 6, "properties": {"MapID": 9.0, "PARK": "Peggy Hayes Memorial Garden", "LOCATION": "Watson St", "GlobalID": "{9FF6CB95-7C91-4A20-AED0-CA8753C1A194}"}},{"geometry": {"type": "Point", "coordinates": [-71.117564170301534, 42.382773560387669]}, "type": "Feature", "id": 7, "properties": {"MapID": 6.0, "PARK": "Sacramento Street Community Garden", "LOCATION": "Sacramento St", "GlobalID": "{1A438DB3-EC08-490C-A7F8-C1C238332073}"}},{"geometry": {"type": "Point", "coordinates": [-71.104922581757208, 42.360030749937273]}, "type": "Feature", "id": 8, "properties": {"MapID": 10.0, "PARK": "Emily Garden", "LOCATION": "Brookline St at Emily St", "GlobalID": "{C31D0086-1AB6-4DD0-AC3A-14C975D72379}"}},{"geometry": {"type": "Point", "coordinates": [-71.135533742066158, 42.398709784919376]}, "type": "Feature", "id": 9, "properties": {"MapID": 1.0, "PARK": "Whittemore Avenue Garden", "LOCATION": "Whittemore Ave at Magoun", "GlobalID": "{A61FE575-6522-4D2C-AA07-14D83B6C993D}"}},{"geometry": {"type": "Point", "coordinates": [-71.148867427302363, 42.389300960744265]}, "type": "Feature", "id": 10, "properties": {"MapID": 2.0, "PARK": "William G. Maher Park Comm. Garden", "LOCATION": "650 Concord Ave", "GlobalID": "{CEC28C6E-C08F-4FDC-8035-5C4CD6CBABF2}"}},{"geometry": {"type": "Point", "coordinates": [-71.07980041477127, 42.367659581048684]}, "type": "Feature", "id": 11, "properties": {"MapID": 13.0, "PARK": "Anthony Costa Park Community Garden", "LOCATION": "Lopez Ave at Charles St", "GlobalID": "{8D13826C-9489-41CB-A817-87DFB0FCA3D8}"}},{"geometry": {"type": "Point", "coordinates": [-71.114095397270589, 42.366191784548256]}, "type": "Feature", "id": 12, "properties": {"MapID": 7.0, "PARK": "Field of Dreams Garden", "LOCATION": "Banks St at Akron St", "GlobalID": "{897C4504-A962-4DAD-8324-489343C23DBE}"}},{"geometry": {"type": "Point", "coordinates": [-71.141495785570612, 42.386068913082632]}, "type": "Feature", "id": 13, "properties": {"MapID": 3.0, "PARK": "Fresh Pond Res./Parkway Garden", "LOCATION": "Fresh Pond Parkway", "GlobalID": "{A9ED189A-ED99-4E0C-B6BA-819345D4DAC4}"}}]}